[
    { "city": "Poltava", "street": "ул. Соборности, 44", "lat": "49.592189", "lng": "34.546222", "rooms": "3", "date": "15.06.2020", "price": "30000", "status": "new", "zoom": "15"},
    { "city": "Poltava", "street": "Лидовая ул., 12/9", "lat": "49.589891", "lng": "34.542944", "rooms": "2", "date": "15.06.2002", "price": "35000", "status": "new", "zoom": "15"},
    { "city": "Poltava", "street": "ул. Дмытра Коряка, 2А", "lat": "49.590811", "lng": "34.543470", "rooms": "3", "date": "15.06.2003", "price": "30000", "status": "new", "zoom": "15"},
    { "city": "Poltava", "street": "ул. Соборности, 46", "lat": "49.593570", "lng": "34.543126", "rooms": "3", "date": "15.06.2019", "price": "25000", "status": "new", "zoom": "15" },
    { "city": "Poltava", "street": "ул. Соборности, 46", "lat": "49.594085", "lng": "34.543770", "rooms": "3", "date": "15.06.2014", "price": "23000", "status": "new", "zoom": "15" },
    { "city": "Poltava", "street": "ул. Коваля", "lat": "49.593848", "lng": "34.54545014", "rooms": "3", "date": "15.06.2005", "price": "40000", "status": "new", "zoom": "15" },
    { "city": "Poltava", "street": "пл. Независимости, 16", "lat": "49.593111", "lng": "34.548362", "rooms": "3", "date": "15.06.2001", "price": "18000", "status": "new", "zoom": "15" },
    { "city": "Poltava", "street": "вулиця Яценка, 1", "lat": "49.595202", "lng": "34.545454", "rooms": "4", "date": "15.06.1989", "price": "20000", "status": "old", "zoom": "15" },
    { "city": "Poltava", "street": "ул. Соборности, 51", "lat": "49.593993", "lng": "34.540805", "rooms": "3", "date": "15.06.2010", "price": "34000", "status": "new", "zoom": "15" },
    { "city": "Poltava", "street": "ул. Соборности, 53/1", "lat": "49.594640", "lng": "34.549413", "rooms": "4", "date": "15.06.1977", "price": "19000", "status": "old", "zoom": "15" },
    { "city": "Poltava", "street": "ул. Соборности, 50", "lat": "49.594623", "lng": "34.541410", "rooms": "3", "date": "15.06.2019", "price": "20000", "status": "new", "zoom": "15" },
    { "city": "Poltava", "street": "ул. Соборности, 52", "lat": "49.595100", "lng": "34.540254", "rooms": "2", "date": "15.06.2001", "price": "41000", "status": "new", "zoom": "15" },
    { "city": "Poltava", "street": "ул. Соборности, 67", "lat": "49.596036", "lng": "34.536577", "rooms": "2", "date": "15.06.2010", "price": "33000", "status": "new", "zoom": "15" },
    { "city": "Poltava", "street": "ул. Европейская, 10", "lat": "49.586144", "lng": "34.551364", "rooms": "3", "date": "15.06.2017", "price": "27000", "status": "new", "zoom": "15" },
    { "city": "Poltava", "street": "ул. Европейская, 27/24", "lat": "49.585480", "lng": "34.550760", "rooms": "2", "date": "15.06.2016", "price": "36000", "status": "new", "zoom": "15" },
    { "city": "Poltava", "street": "ул. Пушкина, 47", "lat": "49.585276", "lng": "34.549841", "rooms": "3", "date": "15.06.2013", "price": "45000", "status": "new", "zoom": "15" },
    { "city": "Poltava", "street": "ул. Пушкина, 32", "lat": "49.586468", "lng": "34.548396", "rooms": "3", "date": "15.06.2010", "price": "17000", "status": "new", "zoom": "15" },
    { "city": "Poltava", "street": "ул. Пушкина, 43", "lat": "49.585003", "lng": "34.551627", "rooms": "4", "date": "15.06.1994", "price": "43000", "status": "old", "zoom": "15" },
    { "city": "Poltava", "street": "Комсомольская ул., 32", "lat": "49.584186", "lng": "34.557878", "rooms": "3", "date": "15.06.1990", "price": "33000", "status": "old", "zoom": "15" },
    { "city": "Poltava", "street": "ул. Соборности, 24/15", "lat": "49.586434", "lng": "34.558219", "rooms": "2", "date": "15.06.2000", "price": "32000", "status": "new", "zoom": "15" },
    { "city": "Poltava", "street": "ул. Соборности, 19", "lat": "49.585718", "lng": "34.558955", "rooms": "3", "date": "15.06.1994", "price": "36000", "status": "old", "zoom": "15" },
    { "city": "Poltava", "street": "ул. Гоголя, 5", "lat": "49.587404", "lng": "34.559454", "rooms": "3", "date": "15.06.2010", "price": "37000", "status": "new", "zoom": "15" },
    { "city": "Poltava", "street": "ул. Гоголя, 6", "lat": "49.587983", "lng": "34.559217", "rooms": "2", "date": "15.06.2018", "price": "38000", "status": "new", "zoom": "15" },
    { "city": "Poltava", "street": "ул. Старый Подол, 4", "lat": "49.581966", "lng": "34.581512", "rooms": "3", "date": "15.06.1995", "price": "31000", "status": "old", "zoom": "15" },
    { "city": "Poltava", "street": "ул. Головко, 16", "lat": "49.570068", "lng": "34.583145", "rooms": "2", "date": "15.06.2015", "price": "20000", "status": "new", "zoom": "15" },
    { "city": "Poltava", "street": "ул. Чураевны, 7", "lat": "49.567680", "lng": "34.577921", "rooms": "2", "date": "15.06.1999", "price": "20000", "status": "old", "zoom": "15" },
    { "city": "Poltava", "street": "ул. Чураевны, 13", "lat": "49.566327", "lng": "34.577447", "rooms": "4", "date": "15.06.1990", "price": "41000", "status": "old", "zoom": "15" },
    { "city": "Poltava", "street": "ул. Мира, 8", "lat": "49.578314", "lng": "34.583152", "rooms": "2", "date": "15.06.2012", "price": "32000", "status": "new", "zoom": "15" },
    { "city": "Poltava", "street": "ул. Богдана Хмельницкого, 9", "lat": "49.578633", "lng": "34.584642", "rooms": "3", "date": "15.06.2015", "price": "39000", "status": "new", "zoom": "15" },
    { "city": "Poltava", "street": "ул. Европейская, 45", "lat": "49.579258", "lng": "34.539737", "rooms": "3", "date": "15.06.2013", "price": "20000", "status": "new", "zoom": "15" },
    { "city": "Poltava", "street": "ул. Ивана Мазепы, 9", "lat": "49.564993", "lng": "34.515054", "rooms": "3", "date": "15.06.2012", "price": "21000", "status": "new", "zoom": "15" },
    { "city": "Poltava", "street": "ул. Степного Фронта, 34", "lat": "49.566099", "lng": "34.521533", "rooms": "4", "date": "15.06.2003", "price": "25000", "status": "new", "zoom": "15" },
    { "city": "Poltava", "street": "ул. Ивана Мазепы, 47/11", "lat": "49.565889", "lng": "34.501198", "rooms": "4", "date": "15.06.1971", "price": "35000", "status": "old", "zoom": "15" },
    { "city": "Poltava", "street": "ул. Великотырновская, 16", "lat": "49.567703", "lng": "34.493355", "rooms": "3", "date": "15.06.1967", "price": "48000", "status": "old", "zoom": "15" },
    { "city": "Poltava", "street": "ул. Великотырновская, 29/2", "lat": "49.583438", "lng": "34.490931", "rooms": "2", "date": "15.06.1986", "price": "50000", "status": "old", "zoom": "15" },
    { "city": "Poltava", "street": "ул. Курчатова, 8/9", "lat": "49.581698", "lng": "34.485020", "rooms": "3", "date": "15.06.2009", "price": "60000", "status": "new", "zoom": "15" },
    { "city": "Poltava", "street": "ул. Баленка, 13", "lat": "49.603289", "lng": "34.499264", "rooms": "3", "date": "15.06.2004", "price": "30000", "status": "new", "zoom": "15" },
    { "city": "Poltava", "street": "ул. Баленка, 4", "lat": "49.601963", "lng": "34.495763", "rooms": "2", "date": "15.06.2011", "price": "20000", "status": "new", "zoom": "15" },
    { "city": "Poltava", "street": "Шведская ул., 22", "lat": "49.600790", "lng": "34.538841", "rooms": "3", "date": "15.06.1989", "price": "23000", "status": "new", "zoom": "15" },
    { "city": "Poltava", "street": "ул. Соборности, 44", "lat": "49.592189", "lng": "34.546222", "rooms": "3", "date": "15.06.1992", "price": "31000", "status": "new", "zoom": "15" },
    { "city": "Poltava", "street": "ул. Соборности, 44", "lat": "49.592189", "lng": "34.546222", "rooms": "4", "date": "15.06.2010", "price": "43000", "status": "new", "zoom": "15" },
    { "city": "Poltava", "street": "ул. Соборности, 44", "lat": "49.592189", "lng": "34.546222", "rooms": "3", "date": "15.06.1994", "price": "19000", "status": "old", "zoom": "15" },
    { "city": "Poltava", "street": "ул. Зыгина, 36", "lat": "49.596193", "lng": "34.532930", "rooms": "2", "date": "15.06.1993", "price": "20000", "status": "old", "zoom": "15" },
    { "city": "Poltava", "street": "ул. Зыгина, 35", "lat": "49.597063", "lng": "34.530111", "rooms": "2", "date": "15.06.1990", "price": "40000", "status": "new", "zoom": "15" },
    { "city": "Poltava", "street": "Уютная ул., 25", "lat": "49.594661", "lng": "34.526497", "rooms": "2", "date": "15.06.2001", "price": "45000", "status": "old", "zoom": "15" },
    { "city": "Poltava", "street": "ул. Соборности, 40", "lat": "49.593408", "lng": "34.552231", "rooms": "3", "date": "15.06.2002", "price": "47000", "status": "new", "zoom": "15" },
    { "city": "Poltava", "street": "Лидовая ул., 1", "lat": "49.589354", "lng": "34.547457", "rooms": "3", "date": "15.06.2004", "price": "51000", "status": "new", "zoom": "15" },
    { "city": "Poltava", "street": "ул. Соборности, 46", "lat": "49.593791", "lng": "34.544070", "rooms": "2", "date": "15.06.2003", "price": "19000", "status": "old", "zoom": "15" },
    { "city": "Poltava", "street": "ул. Соборности, 42а", "lat": "49.592170", "lng": "34.551945", "rooms": "3", "date": "15.06.2001", "price": "63000", "status": "new", "zoom": "15" },
    { "city": "Poltava", "street": "ул. Котляревского, 22", "lat": "49.585465", "lng": "34.553209", "rooms": "2", "date": "15.06.2002", "price": "20000", "status": "old", "zoom": "15" },
    { "city": "Poltava", "street": "ул. Шевченко, 22", "lat": "49.581618", "lng": "34.554095", "rooms": "4", "date": "15.06.2001", "price": "23000", "status": "old", "zoom": "15" }
]